[
    {
        "title": "Flight Attendant - Delta Airlines",
        "company": "Delta Airlines",
        "location": "Atlanta, USA",
        "lat": 33.749,
        "lon": -84.388,
        "link": "https://delta.com/careers"
    },
    {
        "title": "Cabin Crew - Emirates",
        "company": "Emirates",
        "location": "Dubai, UAE",
        "lat": 25.276,
        "lon": 55.296,
        "link": "https://emiratesgroupcareers.com"
    },
    {
        "title": "Flight Attendant - Qantas",
        "company": "Qantas",
        "location": "Sydney, Australia",
        "lat": -33.868,
        "lon": 151.209,
        "link": "https://qantas.com/careers"
    },
    {
        "title": "Cabin Crew - Lufthansa",
        "company": "Lufthansa",
        "location": "Frankfurt, Germany",
        "lat": 50.11,
        "lon": 8.682,
        "link": "https://lufthansa.com/careers"
    },
    {
        "title": "Cabin Crew - British Airways",
        "company": "British Airways",
        "location": "London, UK",
        "lat": 51.47,
        "lon": -0.454,
        "link": "https://britishairways.com/careers"
    },
    {
        "title": "Cabin Crew - Air Canada",
        "company": "Air Canada",
        "location": "Toronto, Canada",
        "lat": 43.677,
        "lon": -79.624,
        "link": "https://aircanada.com/careers"
    },
    {
        "title": "Flight Attendant - Singapore Airlines",
        "company": "Singapore Airlines",
        "location": "Singapore",
        "lat": 1.364,
        "lon": 103.991,
        "link": "https://singaporeair.com/careers"
    },
    {
        "title": "Cabin Crew - Qatar Airways",
        "company": "Qatar Airways",
        "location": "Doha, Qatar",
        "lat": 25.276,
        "lon": 51.52,
        "link": "https://qatarairways.com/careers"
    }
]